HospitalName,Latitude,Longitude,Email
Sardar Patel Cantonment General Hospital,18.5027163,73.87712,datasciencetestmail@gmail.com
Dr. Babasaheb Ambedkar Cantonment General Hospital,18.569025,73.8486994,datasciencetestmail@gmail.com
Command Hospital Southern Command,18.5005828,73.8894328,datasciencetestmail@gmail.com
Sassoon Hospital,18.5251434,73.8695664,datasciencetestmail@gmail.com
Medipoint Hospital,18.5649964,73.8022359,datasciencetestmail@gmail.com
LifeLine Hospital,18.5597445,73.8062674,datasciencetestmail@gmail.com
Dr. Chowdhary,18.5547291,73.8082012,datasciencetestmail@gmail.com
Dr. Bonagiri,18.5554816,73.8088556,datasciencetestmail@gmail.com
Shree Sakthi Hospital,18.5883392,73.8015444,datasciencetestmail@gmail.com
Karva Hospital,18.5009733,73.8461063,datasciencetestmail@gmail.com
Jeevan Deep Medicare Centre,18.5432946,73.7838496,datasciencetestmail@gmail.com
Dr. Mane's Dental Clinic,18.5423675,73.7907843,datasciencetestmail@gmail.com
Sahyadri Hospital,18.5074625,73.8057842,datasciencetestmail@gmail.com
"Krishna Hospital, Pune",18.5092055,73.8128199,datasciencetestmail@gmail.com
Madhukar General Hospital,18.4789234,73.8241232,datasciencetestmail@gmail.com
Dr. Mudgerikar Clinic,18.477378,73.819076,datasciencetestmail@gmail.com
Dr. Bodhe Clinic,18.4745186,73.8132288,datasciencetestmail@gmail.com
Dr. Naik Clinic,18.4745644,73.8140764,datasciencetestmail@gmail.com
Shewale Hospital,18.5626652,73.8325327,datasciencetestmail@gmail.com
Trimurti Hospital,18.462396,73.8150518,datasciencetestmail@gmail.com
Sanjiwini Hospital,18.4433669,73.848079,datasciencetestmail@gmail.com
Surya Sahyadri Hospital,18.521259,73.8556767,datasciencetestmail@gmail.com
Prakash Netralaya,18.5427855,73.7907618,datasciencetestmail@gmail.com
Fatima Convent Sahyadri Clinic,18.5045156,73.9008129,datasciencetestmail@gmail.com
Gupte Hospital Of Accurate Diagnostics Pvt Ltd,18.519051,73.8398724,datasciencetestmail@gmail.com
Accord Hospital,18.567225,73.7689211,datasciencetestmail@gmail.com
AIMS Hospital,18.5625409,73.8106962,datasciencetestmail@gmail.com
"Naik Hospital, Pune",18.5102879,73.8594694,datasciencetestmail@gmail.com
Satyanand Hospital,18.4707709,73.8886878,datasciencetestmail@gmail.com
Bora Hospital,18.511463,73.8625468,datasciencetestmail@gmail.com
Patil Hospital,18.4791887,73.8247015,datasciencetestmail@gmail.com
Sahyadri Hospital,18.5029092,73.9277341,datasciencetestmail@gmail.com
NON,18.5098623,73.9286042,datasciencetestmail@gmail.com
Apple Hospital,18.5884835,73.7802163,datasciencetestmail@gmail.com
Metro Chemist,18.4598178,73.7859551,datasciencetestmail@gmail.com
Damle Pediatric & general practice,18.4602735,73.7856466,datasciencetestmail@gmail.com
Golwilkar Metropolis Heath Service (India) Pvt Ltd,18.5181296,73.8344155,datasciencetestmail@gmail.com
Paranjape Hospital,18.5143979,73.8460515,datasciencetestmail@gmail.com
Ashakiran Hospital,18.5719235,73.7811374,datasciencetestmail@gmail.com
Pawar Surgical Hospital,18.5012035,73.9379293,datasciencetestmail@gmail.com
Pulse Hospital,18.4594817,73.8233106,datasciencetestmail@gmail.com
ONP Leela Hospital,18.5329215,73.8468085,datasciencetestmail@gmail.com
Meera Hospital,18.5022882,73.8746894,datasciencetestmail@gmail.com
Jupiter Hospital,18.5656598,73.7859859,datasciencetestmail@gmail.com
Seth Ramdas Shah Memorial Hospital and Research Centre,18.5293628,73.8284091,datasciencetestmail@gmail.com
Ashwini Hospital,18.576745,73.7757678,datasciencetestmail@gmail.com
Nityanand Rehabilitation and Residential Mental Heal,18.4565508,73.8515434,datasciencetestmail@gmail.com
Yashda Hospital,18.5168084,73.859535,datasciencetestmail@gmail.com
Mohite Eye Hospital,18.5006535,73.936556,datasciencetestmail@gmail.com
Joglekar Hospital,18.5327524,73.8336359,datasciencetestmail@gmail.com
"Rakshak Hospital, Pune",18.5628712,73.9377429,datasciencetestmail@gmail.com
Parmar Multi Speciality Hospital and Maternity Home,18.5600564,73.8072065,datasciencetestmail@gmail.com
Chaitanya Centre For Psychological Help,18.4795175,73.8043727,datasciencetestmail@gmail.com
Mothercare Hospital,18.4872463,73.8760145,datasciencetestmail@gmail.com
"Sahyadri Hospital, Bibvewadi",18.4781739,73.862105,datasciencetestmail@gmail.com
Siddhi Health Care Center,18.5857676,73.818174,datasciencetestmail@gmail.com
Argade Infertility and Endoscopic Surgery and Icu Center,18.5017523,73.8102353,datasciencetestmail@gmail.com
Shree Balaji Eye Hospital,18.4910283,73.8581684,datasciencetestmail@gmail.com
Chaitanya Stem Cell Center,18.5000189,73.8503981,datasciencetestmail@gmail.com
Shree Shakti Hospital,18.5887256,73.8014048,datasciencetestmail@gmail.com
"Welfare Medical Foundatios, Mohintara Hospital",18.503468,73.9292309,datasciencetestmail@gmail.com
"Pawar Hospital, Pune",18.4658771,73.8601231,datasciencetestmail@gmail.com
Galaxy Care Laparoscopy Institute Pvt. Ltd.,18.5110031,73.837105,datasciencetestmail@gmail.com
Punarvasu Chikitsalaya,18.5284781,73.8423179,datasciencetestmail@gmail.com
Ushakiran General Hospital,18.5019965,73.9348286,datasciencetestmail@gmail.com
"Sangam Hospital, Pune",18.4757105,73.8578707,datasciencetestmail@gmail.com
"Zenith Hospital, Pune",18.5025879,73.9294803,datasciencetestmail@gmail.com
Umarji Hospital,18.5119352,73.857758,datasciencetestmail@gmail.com
Latkar Hospital,18.5609006,73.8132226,datasciencetestmail@gmail.com
Lunkad Hospital,18.5840808,73.833248,datasciencetestmail@gmail.com
Shashwat Hospital,18.4948349,73.8135271,datasciencetestmail@gmail.com
Medipoint Hospital,18.5623861,73.933849,datasciencetestmail@gmail.com
Indira Maternity Home,18.5122188,73.8762961,datasciencetestmail@gmail.com
Alatkar Hospital,18.5018572,73.9322779,datasciencetestmail@gmail.com
Ranka Hospital,18.4950117,73.861886,datasciencetestmail@gmail.com
Bhide Hospital,18.5048666,73.8443399,datasciencetestmail@gmail.com
Poona Laser Center,18.5123701,73.8381752,datasciencetestmail@gmail.com
Siddhant Maternity Home,18.4792694,73.8566422,datasciencetestmail@gmail.com
Remedy Hospital,18.5005568,73.9365077,datasciencetestmail@gmail.com
Amit Hospital,18.5463494,73.8880362,datasciencetestmail@gmail.com
"Purandare Hospital, Pune",18.5022916,73.8586646,datasciencetestmail@gmail.com
Pramodini Urology Foundation,18.5199125,73.8410217,datasciencetestmail@gmail.com
Harsh Hospital,18.4802908,73.8662057,datasciencetestmail@gmail.com
Shraddha Hospital,18.5019482,73.9315805,datasciencetestmail@gmail.com
Salunke Hospital,18.5585931,73.9273694,datasciencetestmail@gmail.com
Moolanis Eye Care Centre,18.5057737,73.8783494,datasciencetestmail@gmail.com
Gokhale Hospital,18.502172,73.857062,datasciencetestmail@gmail.com
Wankhede Hospital,18.4724656,73.8888207,datasciencetestmail@gmail.com
Pune Fertility Center,18.5287757,73.8479868,datasciencetestmail@gmail.com
Jagtap Hospital,18.4774187,73.8237825,datasciencetestmail@gmail.com
Joshi Hospital,18.5171772,73.8332118,datasciencetestmail@gmail.com
"Lifeline Hospital, Pune",18.5875463,73.8625391,datasciencetestmail@gmail.com
Dr Patwardhan Hospital,18.4573434,73.8507776,datasciencetestmail@gmail.com
Shri Samarth Hospital,18.5180616,73.865867,datasciencetestmail@gmail.com
Mai Mangeshkar Hospital,18.4851843,73.7997318,datasciencetestmail@gmail.com
Kamal Netra Rugnalaya,18.4949914,73.81219,datasciencetestmail@gmail.com
Kulkarni Hospital and Diagnostic Centre,18.4851967,73.8092832,datasciencetestmail@gmail.com
Khares Eye Institute,18.5145168,73.8317379,datasciencetestmail@gmail.com
Dr Chavans Fracture and Orthopaedic Center,18.4785979,73.8238536,datasciencetestmail@gmail.com
Gultekdi Nursing and Maternity Home,18.4926804,73.8685472,datasciencetestmail@gmail.com
Agarwal Maternity and General Hospital,18.5588804,73.931217,datasciencetestmail@gmail.com
Ashakiran Hospital,18.5158253,73.8474959,datasciencetestmail@gmail.com
Sant Dnyaneswar Medical Education Research Centre,18.5137805,73.8476971,datasciencetestmail@gmail.com
Kohakade Hospital,18.5628578,73.9320606,datasciencetestmail@gmail.com
Dr. Karve Childrens Hospital,18.5252254,73.8499763,datasciencetestmail@gmail.com
Yashashree Maternity and Nursing Home,18.4886651,73.8502412,datasciencetestmail@gmail.com
Vinayak Netralaya - Pune,18.5105851,73.817981,datasciencetestmail@gmail.com
Seva Hospital,18.5748353,73.8277468,datasciencetestmail@gmail.com
Mams Sumatibhai Shah Ayurved Mahavidyalayas,18.5035837,73.9387286,datasciencetestmail@gmail.com
Abane Hospital,18.4994516,73.9377093,datasciencetestmail@gmail.com
Rahel Hospital,18.5152906,73.8754553,datasciencetestmail@gmail.com
Nachiket Hospital Pvt Ltd,18.5076864,73.831062,datasciencetestmail@gmail.com
Sai Shree Orthopaedic Super Speciality and Joint Replacement Centre,18.5601581,73.8052712,datasciencetestmail@gmail.com
Shahade Hospital,18.4978682,73.8537562,datasciencetestmail@gmail.com
Dada Laser Eye Institute,18.5109382,73.8799037,datasciencetestmail@gmail.com
Dr.Prakash Katariya Laser Cure,18.5223591,73.8441311,datasciencetestmail@gmail.com
"Siddharth Hospital, Pune",18.4900578,73.8684641,datasciencetestmail@gmail.com
Dr.Purohit Nursing Home,18.490344,73.8443121,datasciencetestmail@gmail.com
"Pooja Hospital, Pune",18.5891781,73.8190953,datasciencetestmail@gmail.com
Sahyadri Hospital Hadapsar,18.5031602,73.9321491,datasciencetestmail@gmail.com
Siddhi Hospital and Laproscopy Centre Pvt Ltd,18.464116,73.859008,datasciencetestmail@gmail.com
Nande Hospital,18.5011902,73.9383772,datasciencetestmail@gmail.com
PBMA's H V Desai Eye Hospital,18.4722952,73.9237216,datasciencetestmail@gmail.com
Suraj Hospital,18.4814034,73.8724713,datasciencetestmail@gmail.com
Moraya Hospital,18.5821441,73.8283718,datasciencetestmail@gmail.com
"Mohintara Hospital, Hadapsar",18.5008462,73.9305311,datasciencetestmail@gmail.com
Chinchanikar Hospital,18.4785438,73.8235485,datasciencetestmail@gmail.com
"Chaitanya Hospital, Bhaghirathi Nagar",18.4778296,73.7977711,datasciencetestmail@gmail.com
Dr Sarawat Memorial Hospital,18.4705427,73.8878018,datasciencetestmail@gmail.com
Kotbagi Hospital,18.5619444,73.8048233,datasciencetestmail@gmail.com
Vinod Memorial Multispeciality Hospital,18.5732119,73.8774723,datasciencetestmail@gmail.com
Om Hospital,18.5292449,73.830716,datasciencetestmail@gmail.com
Bagade Hospital For Women and Maternity Home,18.5964845,73.8300374,datasciencetestmail@gmail.com
Pune Adventist Hospital;advantist hospital,18.491944,73.8710202,datasciencetestmail@gmail.com
Mahajan Hospital,18.4840672,73.857003,datasciencetestmail@gmail.com
Om Prasuti Graha,18.5470843,73.8885243,datasciencetestmail@gmail.com
"Shreenath Hospital, Pune",18.5211129,73.906766,datasciencetestmail@gmail.com
Subodh Hospital,18.5035234,73.8137605,datasciencetestmail@gmail.com
"Pai Hospital, Pune",18.4689649,73.8572026,datasciencetestmail@gmail.com
Chinmay Institute Of Paediatrics,18.5083289,73.8457009,datasciencetestmail@gmail.com
Patil Hospital - Pune,18.4797674,73.8251685,datasciencetestmail@gmail.com
Shree.J.Hospital,18.4653028,73.864194,datasciencetestmail@gmail.com
Paranjpe Eye Clinic and Eye Surgery Centre,18.5183547,73.8404001,datasciencetestmail@gmail.com
K. K. Hospital - Pune,18.5626283,73.938176,datasciencetestmail@gmail.com
Ace Hospital,18.504933,73.8303593,datasciencetestmail@gmail.com
Jeewan Jyot Multispeciality Medical Care Center,18.5569451,73.9074788,datasciencetestmail@gmail.com
Pooja Hospital,18.5023551,73.9288205,datasciencetestmail@gmail.com
Chandra Hospital,18.4522084,73.890656,datasciencetestmail@gmail.com
Global Hospital & Research Institute,18.5013237,73.8410144,datasciencetestmail@gmail.com
"Lokmanya Hospital, Pune",18.5089079,73.834105,datasciencetestmail@gmail.com
Sai Sneh Hospital and Diagnostic Centre Pvt Ltd,18.4465478,73.8597831,datasciencetestmail@gmail.com
"Lodha Hospital, Pune",18.4833651,73.8004071,datasciencetestmail@gmail.com
"Adarsh Hospital, Pune",18.4541274,73.8881166,datasciencetestmail@gmail.com
Dhanwantari Hospital,18.5194471,73.8658999,datasciencetestmail@gmail.com
Pungliya Hospital,18.5226796,73.8508487,datasciencetestmail@gmail.com
B.J.Medical College and Sassoon Hospital,18.526235,73.871161,datasciencetestmail@gmail.com
Karne Hospital Pvt Ltd,18.4954696,73.8583709,datasciencetestmail@gmail.com
Vibhute Hospital,18.5040492,73.8518391,datasciencetestmail@gmail.com
Yash Hospital - V.K. Medical Foundation,18.5103392,73.9380687,datasciencetestmail@gmail.com
Kulkarni Endo Surgery Institute and Reconstructive Urology Centre,18.5097841,73.8029893,datasciencetestmail@gmail.com
Vinnayak Hospital,18.4854879,73.8717458,datasciencetestmail@gmail.com
Dr Makan Surgical Maternity and Accident Hospital,18.5756743,73.8196734,datasciencetestmail@gmail.com
Shah Hospital,18.5486475,73.8893055,datasciencetestmail@gmail.com
Prathmesh Hospital,18.5518547,73.9368054,datasciencetestmail@gmail.com
Pune City Eye Hospital,18.5298629,73.8760869,datasciencetestmail@gmail.com
Talesara Hospital,18.5498719,73.8887711,datasciencetestmail@gmail.com
Borse Nursing Home,18.5093803,73.7901476,datasciencetestmail@gmail.com
Prathamesh Hospital,18.5735081,73.8239434,datasciencetestmail@gmail.com
Deodhar Eye Hospital,18.5114494,73.836472,datasciencetestmail@gmail.com
"Om Hospital, Bavdhan",18.5164841,73.7818475,datasciencetestmail@gmail.com
Godbole Hospital,18.5112078,73.8513154,datasciencetestmail@gmail.com
Sanjeevani Hospital,18.4626294,73.7748331,datasciencetestmail@gmail.com
Kataria Hospital,18.545411,73.8855249,datasciencetestmail@gmail.com
Dr.Pawar Eye Hospital,18.5092716,73.8449264,datasciencetestmail@gmail.com
National Institute Of Ophthalmology,18.5596864,73.8148253,datasciencetestmail@gmail.com
Nm Wadia Institute Of Cardiology,18.5307444,73.8771894,datasciencetestmail@gmail.com
Bhakti Hospital,18.5851041,73.819735,datasciencetestmail@gmail.com
Sane Guruji Arogya Kendra,18.503632,73.9381224,datasciencetestmail@gmail.com
Disha Diagnostic Center,18.5609146,73.8118554,datasciencetestmail@gmail.com
Bhandari Maternity and Nursing Home,18.4777164,73.8234164,datasciencetestmail@gmail.com
"Samarth Hospital, Pune",18.5195234,73.862059,datasciencetestmail@gmail.com
Amai Charitable Trust Institute Of Urology,18.5550536,73.8162401,datasciencetestmail@gmail.com
Z Y - Vision,18.5247371,73.8408494,datasciencetestmail@gmail.com
"Shreeyash Hospital, Pune",18.5155666,73.8418673,datasciencetestmail@gmail.com
Dr. Todkar Hospital,18.5229518,73.8639473,datasciencetestmail@gmail.com
Khenat Hospital and Maternity Home,18.4891281,73.8138248,datasciencetestmail@gmail.com
Manoj Clinic / Gore Hospital,18.5117788,73.8487867,datasciencetestmail@gmail.com
Pharande Eye Hospital,18.4777316,73.8239729,datasciencetestmail@gmail.com
Vishwaniranjan Eye Hospital,18.5113846,73.8458276,datasciencetestmail@gmail.com
Dhanvantary Hospital,18.5728934,73.8249265,datasciencetestmail@gmail.com
Shree Nursing and Maternity Home,18.4845772,73.8159759,datasciencetestmail@gmail.com
"Ram Krishna Hospital, Pune",18.5092455,73.8483354,datasciencetestmail@gmail.com
Shatayu Hospital,18.4664871,73.857691,datasciencetestmail@gmail.com
"Vinayak Hospital, Warje",18.4858542,73.7968263,datasciencetestmail@gmail.com
Sanjeevan Maternity and Surgical Hospital,18.5593966,73.8025528,datasciencetestmail@gmail.com
Serene Hospital Pvt Ltd,18.5697941,73.8818973,datasciencetestmail@gmail.com
Deshpande Hospital,18.5049909,73.9022358,datasciencetestmail@gmail.com
Centre For Laproscopy Surgery,18.5207937,73.8452496,datasciencetestmail@gmail.com
Kawedia Hospital,18.5070645,73.8782608,datasciencetestmail@gmail.com
Om Shakti Chaya Hospital - Rsby,18.4685007,73.920515,datasciencetestmail@gmail.com
Ambekar Hospital,18.5054055,73.817541,datasciencetestmail@gmail.com
Kamaladevi Maternity Hospital & Research Home,18.467118,73.8190001,datasciencetestmail@gmail.com
Harijivan Hospital,18.5001435,73.8542376,datasciencetestmail@gmail.com
Nityaseva Eye Hsopital and Eye Bank,18.575223,73.8173626,datasciencetestmail@gmail.com
Dugad Hospital Pvt Ltd,18.4909481,73.8580129,datasciencetestmail@gmail.com
Dhanvantari Hospital,18.5004494,73.9360535,datasciencetestmail@gmail.com
Agrawal Hospital,18.4891931,73.8140419,datasciencetestmail@gmail.com
Inaam General Hospital,18.5618595,73.892592,datasciencetestmail@gmail.com
Aditya Eye Hospital & Lasik Centre,18.560232,73.8953506,datasciencetestmail@gmail.com
Sahyadri Super Speciality Hospital,18.5543086,73.8971383,datasciencetestmail@gmail.com
Rutu Anand Hospital,18.56295,73.8942307,datasciencetestmail@gmail.com
Freedom Fighter Gangaram Karne Hospital,18.5565024,73.8972835,datasciencetestmail@gmail.com
Chatrapati Shivray Hospital PMC Pune,18.5623853,73.8965795,datasciencetestmail@gmail.com
Shree Hospital,18.5533588,73.8989792,datasciencetestmail@gmail.com
Neney's Hospital,18.5536181,73.899622,datasciencetestmail@gmail.com
PMC ARMED FORCE MEDICAL COLLEGE(AFMC),18.503916,73.890117,datasciencetestmail@gmail.com
Bharati Vidyapeeth Dental College and Hospital,18.457239,73.855026,datasciencetestmail@gmail.com
Arvind Ganpat Bartakke Dawakhana Atulnagar,18.48356,73.792632,datasciencetestmail@gmail.com
Murlidhar Pandurang Laigude Hospital,18.4623918,73.804957,datasciencetestmail@gmail.com
Late Anandibai Narhar Gadgil Hospital,18.5024088,73.8386813,datasciencetestmail@gmail.com
Sutika Seva Mandir,18.513913,73.846551,datasciencetestmail@gmail.com
PMC Sangamnerkar Hospital (N. G. O.),18.561134,73.921412,datasciencetestmail@gmail.com
Chris Rock Edward Paul Hospital,18.5770661,73.8990724,datasciencetestmail@gmail.com
Sasoon Hospital,18.521872,73.873118,datasciencetestmail@gmail.com
Dr Bhore's Mother & Child Clinic,18.5977182,73.9028326,datasciencetestmail@gmail.com
CT Nursing Home,18.596865,73.9001514,datasciencetestmail@gmail.com
"FPA , Kothrud",18.506552,73.7886402,datasciencetestmail@gmail.com
Colony Nursing Home,18.5030769,73.8446917,datasciencetestmail@gmail.com
Vaibhav Hospital,18.5490315,73.8887874,datasciencetestmail@gmail.com
Gupte Hospital Extension Clinic,18.557773,73.793639,datasciencetestmail@gmail.com
Dhanwantari Hospital,18.5593096,73.7895512,datasciencetestmail@gmail.com
Bora Hospital,18.5828476,73.8122787,datasciencetestmail@gmail.com
Shivam Hospital,18.500617,73.9364994,datasciencetestmail@gmail.com
Kamal Hospital,18.494483,73.902522,datasciencetestmail@gmail.com
Manas Hospital,18.449772,73.837835,datasciencetestmail@gmail.com
Prime Multispeciality Hospital,18.5535131,73.7537866,datasciencetestmail@gmail.com
Goodwill Icon Hospital,18.5537182,73.9395977,datasciencetestmail@gmail.com
Shree Sai Prasad Hospital,18.4495206,73.849381,datasciencetestmail@gmail.com
Petals Hospital,18.5492968,73.8888427,datasciencetestmail@gmail.com
Dr. Agarwals Eye Hospital,18.5535506,73.80838,datasciencetestmail@gmail.com
Shwas Multispeciality Hospital,18.4468202,73.8373703,datasciencetestmail@gmail.com
Londhe Hospital,18.4768406,73.9257973,datasciencetestmail@gmail.com
Snehbandh Multispeciality Hospital,18.5806656,73.8307214,datasciencetestmail@gmail.com
N. M. Wadia Hospital,18.530716,73.876952,datasciencetestmail@gmail.com
Shahu Hospital,18.4820937,73.8993556,datasciencetestmail@gmail.com
Mayureshwar Multispeciality Hospital,18.4488442,73.832632,datasciencetestmail@gmail.com
Dr. Shraddha Angal,18.540958,73.829755,datasciencetestmail@gmail.com
Giridhar Hospital,18.448229,73.83316,datasciencetestmail@gmail.com
Noble Hospital,18.5035846,73.9273481,datasciencetestmail@gmail.com
New Command Hospital,18.4956457,73.884521,datasciencetestmail@gmail.com
Sushrusha Hospital,18.483917,73.939737,datasciencetestmail@gmail.com
Aditya Hospital,18.586342,73.813735,datasciencetestmail@gmail.com
Serene Hospital,18.569842,73.8823303,datasciencetestmail@gmail.com
Sanjeevani Hospital,18.5914168,73.7395295,datasciencetestmail@gmail.com
Chaitanya General Hospital,18.519983,73.9067768,datasciencetestmail@gmail.com
Dharmadhikari Hospital,18.5015481,73.9357865,datasciencetestmail@gmail.com
Dinkar Hospital,18.4869268,73.9421209,datasciencetestmail@gmail.com
Pagare Hospital,18.5889738,73.8165592,datasciencetestmail@gmail.com
Shree Hospital,18.5515015,73.9411724,datasciencetestmail@gmail.com
Dr. Babasaheb Ambedkar Cantonment General Hospital,18.5687508,73.8486366,datasciencetestmail@gmail.com
Life Care Multispecality Hospital,18.4879916,73.9389363,datasciencetestmail@gmail.com
Bhakare Super Speciality Hospital,18.448115,73.849133,datasciencetestmail@gmail.com
Kasturba General Hospital,18.5725401,73.8815063,datasciencetestmail@gmail.com
Sudarshan Hospital,18.588825,73.817373,datasciencetestmail@gmail.com
Vinayak Hospital,18.5684211,73.8797365,datasciencetestmail@gmail.com
Vitalife Medipoint Hospital,18.564751,73.802275,datasciencetestmail@gmail.com
Aadhar Hospital,18.4756744,73.931237,datasciencetestmail@gmail.com
Max Neuro Hospital,18.5984676,73.8285109,datasciencetestmail@gmail.com
"Manipal Hospital, Pune",18.5409242,73.935679,datasciencetestmail@gmail.com
Ayodhya Trust General Hospital,18.49253,73.9037686,datasciencetestmail@gmail.com
Chordiya Nursing Home,18.4581135,73.8781846,datasciencetestmail@gmail.com
Anup Hospital,18.498738,73.838315,datasciencetestmail@gmail.com
Apex Superspeciality Hospital,18.5075984,73.8439447,datasciencetestmail@gmail.com
Date Hospital,18.51024,73.8522294,datasciencetestmail@gmail.com
Morya General Hospital,18.5147901,73.8484343,datasciencetestmail@gmail.com
Suman Hospital,18.492348,73.853457,datasciencetestmail@gmail.com
Lifeline Hospital,18.4723283,73.8923643,datasciencetestmail@gmail.com
Sabane Hospital,18.5107027,73.8434338,datasciencetestmail@gmail.com
Kamat Hospital,18.512445,73.869389,datasciencetestmail@gmail.com
Bindu Madhav Thakarey Hospital,18.496127,73.817109,datasciencetestmail@gmail.com
National Hospital,18.4714238,73.8887261,datasciencetestmail@gmail.com
Meenatai Thakre Maternity Home,18.47396,73.889134,datasciencetestmail@gmail.com
Bhagirathi Children's Hospital,18.4947224,73.8229041,datasciencetestmail@gmail.com
Vishranti Hospital,18.5086317,73.8744506,datasciencetestmail@gmail.com
Matru Seva Hospital;Pacharne Hospital,18.516314,73.871996,datasciencetestmail@gmail.com
Shraddha Hospital,18.4909252,73.845933,datasciencetestmail@gmail.com
Purohit Hospital,18.4975587,73.8513176,datasciencetestmail@gmail.com
Prerna Hospital,18.4553105,73.8690108,datasciencetestmail@gmail.com
Bapat Hospital,18.530365,73.842063,datasciencetestmail@gmail.com
Shivneri Hospital,18.449571,73.85723,datasciencetestmail@gmail.com
New Pune Hospital,18.470806,73.888399,datasciencetestmail@gmail.com
Kothari Orthopaedic Hospital,18.4891725,73.8571698,datasciencetestmail@gmail.com
Kalyani Hospital,18.5046645,73.8592129,datasciencetestmail@gmail.com
Kumbhare Hospital,18.5218011,73.8622355,datasciencetestmail@gmail.com
Yogesh Hospital,18.510438,73.847875,datasciencetestmail@gmail.com
Gokhale Hospital,18.502188,73.857108,datasciencetestmail@gmail.com
Sai Samarth Hospital,18.5231039,73.8681573,datasciencetestmail@gmail.com
Dr. Baba Saheb Ambedkar Hospital;dr baba saheb ambedkar hospital,18.4962994,73.8702072,datasciencetestmail@gmail.com
Todkar Hospital,18.5107128,73.8660862,datasciencetestmail@gmail.com
Shaishav Children's Hospital,18.5137927,73.8476204,datasciencetestmail@gmail.com
Suyash Hospital,18.5001862,73.8124022,datasciencetestmail@gmail.com
Moraya Nursing Home,18.4472895,73.8662836,datasciencetestmail@gmail.com
Swanand Maternity Hospital,18.5297435,73.8339823,datasciencetestmail@gmail.com
City Hospital,18.5071504,73.7997343,datasciencetestmail@gmail.com
Parasnis Hospital,18.474694,73.858715,datasciencetestmail@gmail.com
Shintre Hospital,18.5122403,73.8499324,datasciencetestmail@gmail.com
Alliance Munot Hospital;munot hospital,18.5025447,73.8686993,datasciencetestmail@gmail.com
Kalavati Mavale Hospital,18.5150421,73.8464127,datasciencetestmail@gmail.com
Jeevandhara Multispeciality Hospital,18.4491259,73.8577679,datasciencetestmail@gmail.com
ASG Eye Hospital,18.528932,73.8436351,datasciencetestmail@gmail.com
Rode Hospital,18.5091812,73.8149589,datasciencetestmail@gmail.com
Mantri Hospital,18.505204,73.834167,datasciencetestmail@gmail.com
Kering Hospital;kering clinic,18.5029885,73.8682087,datasciencetestmail@gmail.com
Siddhivinayak Hospital,18.4559009,73.8709944,datasciencetestmail@gmail.com
Kirad Hospital,18.5143478,73.868913,datasciencetestmail@gmail.com
Chajed Hospital,18.50451,73.8628189,datasciencetestmail@gmail.com
KEM Hospital,18.5200596,73.8669776,datasciencetestmail@gmail.com
Hope Hospital,18.5126915,73.869516,datasciencetestmail@gmail.com
David Sassoon Hospital,18.525279,73.870499,datasciencetestmail@gmail.com
MJM Hospital,18.5245059,73.8438216,datasciencetestmail@gmail.com
Chavan Hospital,18.502202,73.8584592,datasciencetestmail@gmail.com
dental health care,18.5062067,73.8625971,datasciencetestmail@gmail.com
ARCUS HOSPITAL,18.4889132,73.8990842,datasciencetestmail@gmail.com
Sai Allergy asthma Eye Children Hospital,18.4852917,73.8514295,datasciencetestmail@gmail.com
Sathe Multispeciality Hospital,18.5067869,73.8037337,datasciencetestmail@gmail.com
"Facethetics - Dental, Facial Cosmetics(BOTOX), & Hair Transplant Clinique",18.5136297,73.8285827,datasciencetestmail@gmail.com
,,,datasciencetestmail@gmail.com
Shree Hospital,18.5664237,73.8144112,datasciencetestmail@gmail.com
Karan Hospital,18.5836745,73.8846483,datasciencetestmail@gmail.com
Ordnance Factory Hospital,18.5607785,73.8444489,datasciencetestmail@gmail.com
"Military Hospital ,Pune",18.5526036,73.8381779,datasciencetestmail@gmail.com
Morya Multispeciality Hospital,18.4643898,73.8153134,datasciencetestmail@gmail.com
Matoshri Ramabai Ambedkar Prasutigriha,18.502785,73.8500051,datasciencetestmail@gmail.com
Savitribai Phule Meternity Home,18.5048618,73.8611993,datasciencetestmail@gmail.com
Premchand Oswal Hospital,18.4677248,73.8683031,datasciencetestmail@gmail.com
"Janata Hospital ,Pune",18.4993855,73.8470078,datasciencetestmail@gmail.com
"Government Hospital, Dhankawadi",18.4652208,73.8495579,datasciencetestmail@gmail.com
Vasant More Hospital,18.4533972,73.8698521,datasciencetestmail@gmail.com
Hazrat Maulana Yunus Sahab Rahmatullah Alaih Dawakhana,18.4482157,73.856594,datasciencetestmail@gmail.com
G B Indumati Manilal Khanna Hospital,18.4925761,73.8665946,datasciencetestmail@gmail.com
Varadvinayak Children and Eye Hospital,18.4934295,73.9315228,datasciencetestmail@gmail.com
Rising Medicare Hospital,18.5537402,73.9393307,datasciencetestmail@gmail.com
Late Pruthak Barate Hospital,18.4753187,73.7975854,datasciencetestmail@gmail.com
Apollo Spectra Hospitals,18.5029796,73.8520221,datasciencetestmail@gmail.com
city hospiyal,18.4713114,73.8878684,datasciencetestmail@gmail.com
Om Hospital in Pune,18.4747094,73.8844764,datasciencetestmail@gmail.com
Chellaram Hospital,18.5196786,73.769934,datasciencetestmail@gmail.com
Om Childrens Clinic,18.597536,73.9088733,datasciencetestmail@gmail.com
Thite Multispeciality Hospital,18.5629303,73.9400147,datasciencetestmail@gmail.com
Metropolis Healthcare Ltd,18.5078453,73.8265103,datasciencetestmail@gmail.com
Shree laxmi Hospital,18.5503379,73.9373754,datasciencetestmail@gmail.com
Joshi Hospital,18.5178773,73.842284,datasciencetestmail@gmail.com
Ruby Hall,18.5334658,73.8769727,datasciencetestmail@gmail.com
Benecare Superspeciality Hospital,18.5639725,73.777019,datasciencetestmail@gmail.com
Tirupati Hospital,18.5167814,73.774807,datasciencetestmail@gmail.com
Mule Hospital and Chikitsalay diagnostics,18.5867313,73.7809817,datasciencetestmail@gmail.com
Little miracle childrens hospital,18.5945809,73.7687807,datasciencetestmail@gmail.com
Manipal Hospital,18.5663598,73.7695757,datasciencetestmail@gmail.com
Aashirwad Hospital,18.479729,73.8282621,datasciencetestmail@gmail.com
Todkar Hospital,18.5107733,73.8660853,datasciencetestmail@gmail.com
Modern Hospital,18.5157161,73.8688388,datasciencetestmail@gmail.com
mothercare hospital,18.4873135,73.8761077,datasciencetestmail@gmail.com
metro advanced homeopathy clinic,18.4864264,73.8740424,datasciencetestmail@gmail.com
suraj hospital,18.4814426,73.872471,datasciencetestmail@gmail.com
anvi ENT and thyroid clinic,18.4840027,73.8716266,datasciencetestmail@gmail.com
sharda clinic,18.5012435,73.8663445,datasciencetestmail@gmail.com
sai seva nursing home,18.5067065,73.8798238,datasciencetestmail@gmail.com
immunology and rheumatology clinic,18.4958983,73.8886709,datasciencetestmail@gmail.com
sahyadri hospital,18.4781663,73.8621023,datasciencetestmail@gmail.com
harsh hospital,18.4803051,73.8661942,datasciencetestmail@gmail.com
apollo clinic,18.5644671,73.9139265,datasciencetestmail@gmail.com
bhagali clinic and nursing home,18.474674,73.8580682,datasciencetestmail@gmail.com
sayar hospital,18.4734893,73.8626065,datasciencetestmail@gmail.com
isshan orthopedic hospital,18.4728083,73.8631451,datasciencetestmail@gmail.com
dr kashyab nursing home,18.4705573,73.8643492,datasciencetestmail@gmail.com
Bora Hospital,18.5104549,73.8639446,datasciencetestmail@gmail.com
kedari Hospital,18.5152955,73.8754518,datasciencetestmail@gmail.com
Umarji Hospital,18.5119365,73.857759,datasciencetestmail@gmail.com
Panchsheel Hospital,18.5140768,73.8692464,datasciencetestmail@gmail.com
Sardar Patel Genral Hospital,18.5027364,73.8771188,datasciencetestmail@gmail.com
Meera Hospital,18.5023171,73.8746937,datasciencetestmail@gmail.com
Allice Munot Hospital,18.5025502,73.8686991,datasciencetestmail@gmail.com
Kering Hospital,18.5030034,73.8681299,datasciencetestmail@gmail.com
G.M Babubbhai Memo Hospital,18.508112,73.8751436,datasciencetestmail@gmail.com
Military Hospital,18.4924252,73.8823382,datasciencetestmail@gmail.com
CHandralok Hospital,18.4803326,73.8610219,datasciencetestmail@gmail.com
Sangam Hospital,18.4757475,73.857877,datasciencetestmail@gmail.com
Oyster and Pearl Hospital,18.5318931,73.8472769,datasciencetestmail@gmail.com
Ghaisas ENT Hospital,18.5172397,73.8423562,datasciencetestmail@gmail.com
Phadke Hospital,18.5183149,73.843879,datasciencetestmail@gmail.com
Seth Tarachand Hospital,18.5177725,73.864031,datasciencetestmail@gmail.com
Shre Samarth Hospital,18.5180497,73.8658612,datasciencetestmail@gmail.com
Ruby Hall Clinic,18.5327841,73.8773654,datasciencetestmail@gmail.com
Red blood hospital,18.5273893,73.8710163,datasciencetestmail@gmail.com
Nityashraddha super speciality hospital,18.5278495,73.8760898,datasciencetestmail@gmail.com
N. M. Wadia Institute of Cardiology,18.5307461,73.8771922,datasciencetestmail@gmail.com
WEST VALLEY MULTISPECIALITY HOSPITAL PVT LTD,18.5351432,73.8765318,datasciencetestmail@gmail.com
Kawediya Hospital,18.5242312,73.8627099,datasciencetestmail@gmail.com
Unique Hospital,18.5221641,73.8676777,datasciencetestmail@gmail.com
Sadhu Vaswani Missions Medical Complex,18.5347719,73.8874441,datasciencetestmail@gmail.com
Poona Hospital and Research Centre,18.510644,73.8420437,datasciencetestmail@gmail.com
DEENDAYAL MEMORIAL HOSPITAL,18.5249802,73.8411721,datasciencetestmail@gmail.com
KAMLA NEHRU HOSPITAL,18.5229428,73.8620344,datasciencetestmail@gmail.com
GLOBAL HOSPITAL & RESEARCH,18.5012869,73.8410045,datasciencetestmail@gmail.com
RANKA HOSPITAL,18.4949578,73.8619001,datasciencetestmail@gmail.com
Joshi Hospital,18.5179034,73.8422853,datasciencetestmail@gmail.com
Prayag Hospital,18.5174841,73.842789,datasciencetestmail@gmail.com
PUNE ADVENTIST HOSPITAL,18.491946,73.8709604,datasciencetestmail@gmail.com
HARIJIVAN HOSPITAL,18.5001316,73.8543108,datasciencetestmail@gmail.com
hospital26,18.5583938,73.9309874,datasciencetestmail@gmail.com
Shashwat Hospital,18.4944973,73.8135873,datasciencetestmail@gmail.com
Chavan Hospital,18.459162,73.8254504,datasciencetestmail@gmail.com
Dr Mhaske Hospital and Research Centre Pvt Ltd,18.500696,73.9415815,datasciencetestmail@gmail.com
Vaibhav Nursing Home,18.5875992,73.8871753,datasciencetestmail@gmail.com
Alpha hospital,18.5984803,73.7640386,datasciencetestmail@gmail.com
Care Hospital,18.4645854,73.8906932,datasciencetestmail@gmail.com
,,,datasciencetestmail@gmail.com
Shatayu Hospital Hinjewadi,18.5958868,73.7408138,datasciencetestmail@gmail.com
LifeTree Hospital Hinjawadi,18.5915925,73.7435469,datasciencetestmail@gmail.com
Ashtavinayak Dental Clinic,18.5985006,73.8161559,datasciencetestmail@gmail.com
Datacha Dawakhana,18.5982284,73.816064,datasciencetestmail@gmail.com
SANJIVANI HOSPITAL,18.5954785,73.8164532,datasciencetestmail@gmail.com
घनवट हॉस्पिटल,18.595659,73.8163512,datasciencetestmail@gmail.com
Shri Hospital,18.5969714,73.8152038,datasciencetestmail@gmail.com
,,,datasciencetestmail@gmail.com
Chirayu hospital,18.5981183,73.7639672,datasciencetestmail@gmail.com
ASG eye hospital,18.5967134,73.7904165,datasciencetestmail@gmail.com
White Shine Multispeciality Dental Clinic,18.5755375,73.9069211,datasciencetestmail@gmail.com
test hospital,18.5255793,73.8539506,datasciencetestmail@gmail.com
Jeevan Uday Multispeciality Hospital,18.4429741,73.7807861,datasciencetestmail@gmail.com
Bvmfs Bharti Hospital and Research Center,18.45944773,73.85689369,datasciencetestmail@gmail.com
Rajiv Gandhi Hospital,18.54557625,73.8837641,datasciencetestmail@gmail.com
Inamdar Hospital,18.50313778,73.90004139,datasciencetestmail@gmail.com
Deenanath Mangeshkar Hospital,18.50192997,73.8327572,datasciencetestmail@gmail.com
KEM Hospital,18.52015358,73.86699622,datasciencetestmail@gmail.com
Prayag Hospital,18.5174781,73.84278403,datasciencetestmail@gmail.com
Phadke Hospital,18.51833005,73.84387975,datasciencetestmail@gmail.com
Poona Hospital and Research Centre,18.5106729,73.84201933,datasciencetestmail@gmail.com
Kamla Nehru Hospital,18.52294895,73.86207229,datasciencetestmail@gmail.com
Sancheti Hospital,18.52987341,73.85288439,datasciencetestmail@gmail.com
Sahyadri Hospital,18.51307546,73.83928971,datasciencetestmail@gmail.com
Deoyani Hospital,18.49588619,73.81228199,datasciencetestmail@gmail.com
Noble Hospital,18.50492293,73.92713467,datasciencetestmail@gmail.com
Ruby Hall Clinic,18.48544756,73.90471983,datasciencetestmail@gmail.com
Jog Hospital,18.50943131,73.82115361,datasciencetestmail@gmail.com
Deendayal Memorial Hospital,18.5249981,73.84108603,datasciencetestmail@gmail.com
Oyster and Pearl Hospital Tulip,18.53189683,73.84727415,datasciencetestmail@gmail.com
Navalmal Firodiya Super-Speciality Hospital,18.51709136,73.83302291,datasciencetestmail@gmail.com
"Sanjeevan Hospital, Pune",18.51020083,73.8370971,datasciencetestmail@gmail.com
Ratna Memorial Hospital,18.52765434,73.82952379,datasciencetestmail@gmail.com
PMC - Late. Jayabai Nanasaheb Sutar Maternity Home,18.50360915,73.80769535,datasciencetestmail@gmail.com
Hardikar Hospital,18.5302509,73.8475403,datasciencetestmail@gmail.com
Shashwat Hospital,18.55973115,73.8028421,datasciencetestmail@gmail.com
Jehangir Hospital,18.53033073,73.87654913,datasciencetestmail@gmail.com
Ankura Hospital,18.56539704,73.80473037,datasciencetestmail@gmail.com
Helambe Hospital,18.58977967,73.75205082,datasciencetestmail@gmail.com
Kodre Hospital,18.53171663,73.9378623,datasciencetestmail@gmail.com
skincare clinic,18.48591753,73.88856918,datasciencetestmail@gmail.com
Chandralok Hospital,18.4803325,73.8610232,datasciencetestmail@gmail.com
Annachatre Clinic,18.49021215,73.8494687,datasciencetestmail@gmail.com
Joshi Multispeciality Hospital,18.44688105,73.79993378,datasciencetestmail@gmail.com
Bandal complex,18.50722832,73.79477834,datasciencetestmail@gmail.com
Sharad Hospital,18.4684452,73.8189649,datasciencetestmail@gmail.com
Dalvi Hospital,18.53313959,73.8487919,datasciencetestmail@gmail.com
"Inlaks and Budhrani Hospital,Sadhu Vaswani Mission's Medical Complex",18.53503095,73.8873783,datasciencetestmail@gmail.com
Naydu Rugnalay,18.53134649,73.86902864,datasciencetestmail@gmail.com
Jupiter Hospital,18.56570504,73.78599236,datasciencetestmail@gmail.com
Ruby Hospital,18.58990652,73.86338987,datasciencetestmail@gmail.com
Dr. Naaz,18.57373056,73.82483833,datasciencetestmail@gmail.com
Surya mother and child care super speciality Hospital,18.58733454,73.75809593,datasciencetestmail@gmail.com
Shatayu Hospital Hinjewadi,18.59586243,73.74090024,datasciencetestmail@gmail.com
Cradle maternity and women care,18.5907775,73.78494915,datasciencetestmail@gmail.com
Military Hospital Cardio-Thoracic Center,18.49244742,73.88248331,datasciencetestmail@gmail.com
Aundh Chest Hospital,18.57625086,73.80630295,datasciencetestmail@gmail.com
Seth Tarachand Hospital,18.51778811,73.86409122,datasciencetestmail@gmail.com